{
"type": "FeatureCollection",
"name": "tanks",
"crs": { "type": "name", "properties": { "name": "urn:ogc:def:crs:OGC:1.3:CRS84" } },
"features": [
{ "type": "Feature", "properties": { "Latitude": -0.598984, "Longitude": 36.842516, "Name": "Kihari", "Capacity": 100.0, "Elevation": "ON GROUND", "Status": "ACTIVE" }, "geometry": { "type": "Point", "coordinates": [ 36.842516, -0.598984 ] } },
{ "type": "Feature", "properties": { "Latitude": -0.604609, "Longitude": 36.89352699, "Name": "Kagicha", "Capacity": 157.5, "Elevation": "ON GROUND", "Status": "ACTIVE" }, "geometry": { "type": "Point", "coordinates": [ 36.89352699, -0.604609 ] } },
{ "type": "Feature", "properties": { "Latitude": -0.602425, "Longitude": 36.922603, "Name": "Gathanji", "Capacity": 157.5, "Elevation": "ON GROUND", "Status": "ACTIVE" }, "geometry": { "type": "Point", "coordinates": [ 36.922603, -0.602425 ] } },
{ "type": "Feature", "properties": { "Latitude": -0.577273, "Longitude": 36.85224, "Name": "Mucharage", "Capacity": 225.0, "Elevation": "ON GROUND", "Status": "ACTIVE" }, "geometry": { "type": "Point", "coordinates": [ 36.85224, -0.577273 ] } },
{ "type": "Feature", "properties": { "Latitude": -0.574415, "Longitude": 36.868217, "Name": "Kanjuku", "Capacity": 100.0, "Elevation": "ON GROUND", "Status": "ACTIVE" }, "geometry": { "type": "Point", "coordinates": [ 36.868217, -0.574415 ] } },
{ "type": "Feature", "properties": { "Latitude": -0.579266, "Longitude": 36.898901, "Name": "Miiri", "Capacity": 90.0, "Elevation": "ON GROUND", "Status": "ACTIVE" }, "geometry": { "type": "Point", "coordinates": [ 36.898901, -0.579266 ] } },
{ "type": "Feature", "properties": { "Latitude": -0.560752, "Longitude": 36.867182, "Name": "Kihuri", "Capacity": 90.0, "Elevation": "ON GROUND", "Status": "ACTIVE" }, "geometry": { "type": "Point", "coordinates": [ 36.867182, -0.560752 ] } },
{ "type": "Feature", "properties": { "Latitude": -0.566223, "Longitude": 36.900773, "Name": "Ruruguti", "Capacity": 225.0, "Elevation": "ON GROUND", "Status": "ACTIVE" }, "geometry": { "type": "Point", "coordinates": [ 36.900773, -0.566223 ] } },
{ "type": "Feature", "properties": { "Latitude": -0.560966, "Longitude": 36.9785079, "Name": "Witima", "Capacity": 157.5, "Elevation": "ON GROUND", "Status": "ACTIVE" }, "geometry": { "type": "Point", "coordinates": [ 36.9785079, -0.560966 ] } },
{ "type": "Feature", "properties": { "Latitude": -0.532467, "Longitude": 36.9683319, "Name": "Karima", "Capacity": 150.0, "Elevation": "ON GROUND", "Status": "ACTIVE" }, "geometry": { "type": "Point", "coordinates": [ 36.9683319, -0.532467 ] } },
{ "type": "Feature", "properties": { "Latitude": -0.532467, "Longitude": 36.9683319, "Name": "Karima", "Capacity": 400.0, "Elevation": "ON GROUND", "Status": "ACTIVE" }, "geometry": { "type": "Point", "coordinates": [ 36.9683319, -0.532467 ] } },
{ "type": "Feature", "properties": { "Latitude": -0.33027, "Longitude": 36.52154, "Name": "Kabebero", "Capacity": 90.0, "Elevation": "ON GROUND", "Status": "ACTIVE" }, "geometry": { "type": "Point", "coordinates": [ 36.52154, -0.33027 ] } },
{ "type": "Feature", "properties": { "Latitude": -0.3291, "Longitude": 36.52051, "Name": "Kabebero", "Capacity": 90.0, "Elevation": "ON GROUND", "Status": "ACTIVE" }, "geometry": { "type": "Point", "coordinates": [ 36.52051, -0.3291 ] } },
{ "type": "Feature", "properties": { "Latitude": -0.533117, "Longitude": 36.888981, "Name": "Kihome", "Capacity": 125.0, "Elevation": "ON GROUND", "Status": "ACTIVE" }, "geometry": { "type": "Point", "coordinates": [ 36.888981, -0.533117 ] } },
{ "type": "Feature", "properties": { "Latitude": -0.533117, "Longitude": 36.888981, "Name": "Kihome", "Capacity": 225.0, "Elevation": "ON GROUND", "Status": "ACTIVE" }, "geometry": { "type": "Point", "coordinates": [ 36.888981, -0.533117 ] } },
{ "type": "Feature", "properties": { "Latitude": -0.522743, "Longitude": 36.887796, "Name": "Weru", "Capacity": 157.5, "Elevation": "ON GROUND", "Status": "ACTIVE" }, "geometry": { "type": "Point", "coordinates": [ 36.887796, -0.522743 ] } },
{ "type": "Feature", "properties": { "Latitude": -0.525585, "Longitude": 36.917172, "Name": "Kagonye", "Capacity": 157.5, "Elevation": "ON GROUND", "Status": "ACTIVE" }, "geometry": { "type": "Point", "coordinates": [ 36.917172, -0.525585 ] } },
{ "type": "Feature", "properties": { "Latitude": -0.517303, "Longitude": 36.852106, "Name": "Kaharo", "Capacity": 225.0, "Elevation": "ON GROUND", "Status": "ACTIVE" }, "geometry": { "type": "Point", "coordinates": [ 36.852106, -0.517303 ] } },
{ "type": "Feature", "properties": { "Latitude": -0.30677, "Longitude": 36.53816, "Name": "Gaturuturu", "Capacity": 225.0, "Elevation": "ON GROUND", "Status": "ACTIVE" }, "geometry": { "type": "Point", "coordinates": [ 36.53816, -0.30677 ] } },
{ "type": "Feature", "properties": { "Latitude": -0.30228, "Longitude": 36.51957, "Name": " munyange", "Capacity": 100.0, "Elevation": "ON GROUND", "Status": "ACTIVE" }, "geometry": { "type": "Point", "coordinates": [ 36.51957, -0.30228 ] } },
{ "type": "Feature", "properties": { "Latitude": -0.513345, "Longitude": 36.927095, "Name": "Gakuyu", "Capacity": 90.0, "Elevation": "ON GROUND", "Status": "ACTIVE" }, "geometry": { "type": "Point", "coordinates": [ 36.927095, -0.513345 ] } },
{ "type": "Feature", "properties": { "Latitude": -0.514951, "Longitude": 36.8372049, "Name": "Njigari", "Capacity": 50.0, "Elevation": "ON GROUND", "Status": "ACTIVE" }, "geometry": { "type": "Point", "coordinates": [ 36.8372049, -0.514951 ] } },
{ "type": "Feature", "properties": { "Latitude": -0.529829, "Longitude": 36.861584, "Name": "Rwatheini", "Capacity": 50.0, "Elevation": "ON GROUND", "Status": "ACTIVE" }, "geometry": { "type": "Point", "coordinates": [ 36.861584, -0.529829 ] } },
{ "type": "Feature", "properties": { "Latitude": -0.31953, "Longitude": 36.58101, "Name": "Karima", "Capacity": 500.0, "Elevation": "ON GROUND", "Status": "ACTIVE" }, "geometry": { "type": "Point", "coordinates": [ 36.58101, -0.31953 ] } },
{ "type": "Feature", "properties": { "Latitude": -0.30886, "Longitude": 36.50267, "Name": "Njigari", "Capacity": 100.0, "Elevation": "ON GROUND", "Status": "ACTIVE" }, "geometry": { "type": "Point", "coordinates": [ 36.50267, -0.30886 ] } },
{ "type": "Feature", "properties": { "Latitude": -0.5765781, "Longitude": 36.979747, "Name": "Githagara", "Capacity": 45.0, "Elevation": "ON GROUND", "Status": "ACTIVE" }, "geometry": { "type": "Point", "coordinates": [ 36.979747, -0.5765781 ] } },
{ "type": "Feature", "properties": { "Latitude": -0.5765781, "Longitude": 36.979747, "Name": "Githagara", "Capacity": 225.0, "Elevation": "ON GROUND", "Status": "ACTIVE" }, "geometry": { "type": "Point", "coordinates": [ 36.979747, -0.5765781 ] } },
{ "type": "Feature", "properties": { "Latitude": -0.5824406, "Longitude": 36.999489, "Name": "Karindi", "Capacity": 45.0, "Elevation": "ON GROUND", "Status": "ACTIVE" }, "geometry": { "type": "Point", "coordinates": [ 36.999489, -0.5824406 ] } },
{ "type": "Feature", "properties": { "Latitude": -0.581947, "Longitude": 37.018841, "Name": "Nyakahuho", "Capacity": 360.0, "Elevation": "ON GROUND", "Status": "ACTIVE" }, "geometry": { "type": "Point", "coordinates": [ 37.018841, -0.581947 ] } },
{ "type": "Feature", "properties": { "Latitude": -0.57938454, "Longitude": 37.032784, "Name": "Kamuchuni", "Capacity": 135.0, "Elevation": "ON GROUND", "Status": "ACTIVE" }, "geometry": { "type": "Point", "coordinates": [ 37.032784, -0.57938454 ] } },
{ "type": "Feature", "properties": { "Latitude": -0.604945, "Longitude": 37.063263, "Name": "Wahari", "Capacity": 100.0, "Elevation": "ON GROUND", "Status": "ACTIVE" }, "geometry": { "type": "Point", "coordinates": [ 37.063263, -0.604945 ] } },
{ "type": "Feature", "properties": { "Latitude": -0.6291401, "Longitude": 37.10734122, "Name": "Karaba", "Capacity": 50.0, "Elevation": "ON GROUND", "Status": "ACTIVE" }, "geometry": { "type": "Point", "coordinates": [ 37.10734122, -0.6291401 ] } },
{ "type": "Feature", "properties": { "Latitude": -0.32797, "Longitude": 37.0976, "Name": "Kanunga", "Capacity": 225.0, "Elevation": "ON GROUND", "Status": "ACTIVE" }, "geometry": { "type": "Point", "coordinates": [ 37.0976, -0.32797 ] } },
{ "type": "Feature", "properties": { "Latitude": -0.5352105, "Longitude": 37.055168, "Name": "Kaheti", "Capacity": 100.0, "Elevation": "ON GROUND", "Status": "ACTIVE" }, "geometry": { "type": "Point", "coordinates": [ 37.055168, -0.5352105 ] } },
{ "type": "Feature", "properties": { "Latitude": -0.540679, "Longitude": 37.0360402, "Name": "Gatura", "Capacity": 150.0, "Elevation": "ON GROUND", "Status": "ACTIVE" }, "geometry": { "type": "Point", "coordinates": [ 37.0360402, -0.540679 ] } },
{ "type": "Feature", "properties": { "Latitude": -0.563486, "Longitude": 37.014322, "Name": "Gichecheni", "Capacity": 360.0, "Elevation": "ON GROUND", "Status": "ACTIVE" }, "geometry": { "type": "Point", "coordinates": [ 37.014322, -0.563486 ] } },
{ "type": "Feature", "properties": { "Latitude": -0.544234, "Longitude": 37.083181, "Name": "Ichamara", "Capacity": 225.0, "Elevation": "ON GROUND", "Status": "ACTIVE" }, "geometry": { "type": "Point", "coordinates": [ 37.083181, -0.544234 ] } },
{ "type": "Feature", "properties": { "Latitude": -0.54462015, "Longitude": 37.12409225, "Name": "Kiangondu", "Capacity": 225.0, "Elevation": "ON GROUND", "Status": "ACTIVE" }, "geometry": { "type": "Point", "coordinates": [ 37.12409225, -0.54462015 ] } },
{ "type": "Feature", "properties": { "Latitude": -0.5808443, "Longitude": 37.1309523, "Name": "Ithanji", "Capacity": 225.0, "Elevation": "ON GROUND", "Status": "ACTIVE" }, "geometry": { "type": "Point", "coordinates": [ 37.1309523, -0.5808443 ] } },
{ "type": "Feature", "properties": { "Latitude": -0.5658546, "Longitude": 37.0754589, "Name": "Mihuti", "Capacity": 100.0, "Elevation": "ON GROUND", "Status": "ACTIVE" }, "geometry": { "type": "Point", "coordinates": [ 37.0754589, -0.5658546 ] } },
{ "type": "Feature", "properties": { "Latitude": -0.34408, "Longitude": 37.503, "Name": "Karundu", "Capacity": 400.0, "Elevation": "ON GROUND", "Status": "ACTIVE" }, "geometry": { "type": "Point", "coordinates": [ 37.503, -0.34408 ] } },
{ "type": "Feature", "properties": { "Latitude": -0.32891, "Longitude": 37.3899, "Name": "Ngoru", "Capacity": 100.0, "Elevation": "ON GROUND", "Status": "ACTIVE" }, "geometry": { "type": "Point", "coordinates": [ 37.3899, -0.32891 ] } },
{ "type": "Feature", "properties": { "Latitude": -0.33999, "Longitude": 37.7532, "Name": "Thangathi", "Capacity": 175.0, "Elevation": "ON GROUND", "Status": "ACTIVE" }, "geometry": { "type": "Point", "coordinates": [ 37.7532, -0.33999 ] } },
{ "type": "Feature", "properties": { "Latitude": -0.580833, "Longitude": 37.1094313, "Name": "Kangurwe", "Capacity": 175.0, "Elevation": "ON GROUND", "Status": "ACTIVE" }, "geometry": { "type": "Point", "coordinates": [ 37.1094313, -0.580833 ] } },
{ "type": "Feature", "properties": { "Latitude": -0.35652, "Longitude": 37.5858, "Name": "Mweru", "Capacity": 175.0, "Elevation": "ON GROUND", "Status": "ACTIVE" }, "geometry": { "type": "Point", "coordinates": [ 37.5858, -0.35652 ] } },
{ "type": "Feature", "properties": { "Latitude": -0.62781727, "Longitude": 37.1351492, "Name": "Ngamwa", "Capacity": 175.0, "Elevation": "ON GROUND", "Status": "ACTIVE" }, "geometry": { "type": "Point", "coordinates": [ 37.1351492, -0.62781727 ] } },
{ "type": "Feature", "properties": { "Latitude": -0.576578, "Longitude": 36.979747, "Name": "Githagara", "Capacity": 500.0, "Elevation": "ON GROUND", "Status": "ACTIVE" }, "geometry": { "type": "Point", "coordinates": [ 36.979747, -0.576578 ] } },
{ "type": "Feature", "properties": { "Latitude": -0.576578, "Longitude": 36.979747, "Name": "Githagara", "Capacity": 500.0, "Elevation": "ON GROUND", "Status": "ACTIVE" }, "geometry": { "type": "Point", "coordinates": [ 36.979747, -0.576578 ] } },
{ "type": "Feature", "properties": { "Latitude": 36.980954, "Longitude": 36.980954, "Name": "Gikondi", "Capacity": 500.0, "Elevation": "ON GROUND", "Status": "ACTIVE" }, "geometry": { "type": "Point", "coordinates": [ 36.980954, 36.980954 ] } }
]
}
